{"type":"FeatureCollection","features":[{"type":"Feature","properties":{"id":1,"name":"Hotel Cedres","tags":"hotel  cedres auberge","address":"Hotel Cedres, Place Mohamed V AZROU"},"geometry":{"type":"Point","coordinates":[-5.220072269439697,33.4358643524199]}},{"type":"Feature","properties":{"id":2,"name":"Auberge Panorama","tags":"hotel Auberge Bar Panorama","address":"Auberge Panorama, Ajellab AZROU"},"geometry":{"type":"Point","coordinates":[-5.21498680114746,33.435470408647674]}},{"type":"Feature","properties":{"id":3,"name":"Hotel El Fath","tags":"hotel pension el fath","address":"Hotel El Fath, Gare routière AZROU"},"geometry":{"type":"Point","coordinates":[-5.222368240356445,33.43775346702105]}},{"type":"Feature","properties":{"id":4,"name":"Auberge Lion de l'Atlas","tags":"hotel Auberge Lion de l'Atlas","address":"Auberge Lion de l'Atlas, route de Meknes, Ahadaf, AZROU"},"geometry":{"type":"Point","coordinates":[-5.232029557228088,33.449575167124976]}},{"type":"Feature","properties":{"id":5,"name":"Hotel Diamant d'Atlas","tags":"hotel auberge Diamant de l'atlas","address":"hotel Diamant de l'Atlas, Rue Tit Hsen AZROU"},"geometry":{"type":"Point","coordinates":[-5.221906900405884,33.43307984785878]}},{"type":"Feature","properties":{"id":6,"name":"Hotel d'Azrou","tags":"hotel auberge azrou","address":"Hotel Azrou, Rt N 8 AZROU"},"geometry":{"type":"Point","coordinates":[-5.22623062133789,33.43348275597661]}},{"type":"Feature","properties":{"id":7,"name":"Hotel Salam","tags":"hotel pension salam Essalam","address":"Hotel Essalam, Place Mohamed V AZROU"},"geometry":{"type":"Point","coordinates":[-5.220050811767578,33.43519285627975]}},{"type":"Feature","properties":{"id":8,"name":"Hotel Beau séjour","tags":"hotel pension Beau séjour","address":"Hotel Beau Séjour Souika, AZROU"},"geometry":{"type":"Point","coordinates":[-5.2204155921936035,33.434861582936584]}},{"type":"Feature","properties":{"id":9,"name":"Hotel Ziz","tags":"hotel pension Ziz","address":"Hotel Ziz, Souika AZROU"},"geometry":{"type":"Point","coordinates":[-5.220651626586914,33.43510332306846]}},{"type":"Feature","properties":{"id":10,"name":"Auberge Jeunesse Azrou","tags":"Hotel auberge jeunesse azrou","address":"Auberge Jeunesse Azrou, Ajlab AZROU"},"geometry":{"type":"Point","coordinates":[-5.20951509475708,33.438854685466914]}}]}